City_ID,City,Country,Max Temp,Current Description,Lat,Lng,Hotel Name
4,Marsh Harbour,BS,26.04,broken clouds,26.5412,-77.0636,Abaco Beach Resort
10,Canton,CN,28.97,light rain,23.1167,113.25,Guangzhou Hotel
14,Hithadhoo,MV,28.62,few clouds,-0.6,73.0833,Scoop Guest House
16,Oussouye,SN,25.1,overcast clouds,12.485,-16.5469,Auberge du Routard
18,Phuket,TH,29.49,few clouds,8.0,98.25,The Surin Phuket
20,Kashan,IR,28.51,clear sky,33.9831,51.4364,Manouchehri Traditional House
21,Tiarei,PF,28.89,overcast clouds,-17.5333,-149.3333,Le Rocher de Tahiti
25,Hirara,JP,26.15,broken clouds,24.8,125.2833,Hotel Atoll Emerald Miyakojima
35,Avarua,CK,26.03,few clouds,-21.2078,-159.775,Paradise Inn
61,Touros,BR,25.5,broken clouds,-5.1989,-35.4608,INN NEW HORIZON
68,Dennery,LC,29.07,broken clouds,13.8996,-60.8879,The Fox Grove Inn
72,Lompoc,US,28.9,clear sky,34.6391,-120.4579,"Holiday Inn Express Lompoc, an IHG Hotel"
76,Soyo,AO,25.27,broken clouds,-6.1349,12.3689,Hotel Mpampa
82,Abonnema,NG,25.6,overcast clouds,4.7084,6.7931,Corper's Lodge Obonoma
83,Kavieng,PG,27.97,moderate rain,-2.5744,150.7967,Nusa Island Retreat
84,Oistins,BB,27.05,scattered clouds,13.0667,-59.5333,Butterfly Beach Hotel
85,Kapaa,US,29.18,few clouds,22.0752,-159.319,Sheraton Kauai Coconut Beach Resort
87,Tucurui,BR,27.19,broken clouds,-3.7661,-49.6725,BBB Rooms Centro Tucurui PA
93,Phan Thiet,VN,26.53,few clouds,10.9333,108.1,Hotel Saigon-PT
107,Manokwari,ID,27.65,overcast clouds,-0.8667,134.0833,Swiss Belhotel Manokwari
122,Ishigaki,JP,26.07,broken clouds,24.3448,124.1572,Hotel Peace Land Ishigakijima
123,Kralendijk,BQ,28.99,broken clouds,12.15,-68.2667,Divi Flamingo Beach Resort & Casino
127,Atuona,PF,26.41,clear sky,-9.8,-139.0333,Villa Enata
128,Hillsboro,US,29.6,clear sky,45.5229,-122.9898,Econo Lodge Inn & Suites Hillsboro - Portland West
129,Salalah,OM,28.05,scattered clouds,17.0151,54.0924,HAMDAN PLAZA HOTEL SALALAH
131,Sinnamary,GF,25.44,broken clouds,5.3833,-52.95,ALETHEIA Appartement Sinnamary
134,Wahiawa,US,27.86,scattered clouds,21.5028,-158.0236,Aloha Wahiawa
140,Long Xuyen,VN,25.97,clear sky,10.3833,105.4167,Nhà Nghỉ Sài Gòn Ngày Đêm
141,Poso,ID,25.74,broken clouds,-1.3959,120.7524,Hotel 77 Poso
147,Silver City,US,29.61,clear sky,32.7701,-108.2803,Copper Manor Motel
154,Hospet,IN,25.31,overcast clouds,15.2667,76.4,Hotel Malligi
156,Matara,LK,26.49,overcast clouds,5.9485,80.5353,Amaloh Boutique Resort
165,Mitsamiouli,KM,25.79,light rain,-11.3847,43.2844,Foyer ADM
166,Fortuna,US,29.55,overcast clouds,40.5982,-124.1573,Super 8 by Wyndham Fortuna
172,Ternate,ID,27.21,overcast clouds,0.8,127.4,Grand Dafam Bela Ternate
178,Nabire,ID,25.82,overcast clouds,-3.3667,135.4833,Hotel Nusantara Nabire
180,Kukuna,SL,25.22,moderate rain,9.4,-12.6667,
191,Georgetown,MY,27.72,few clouds,5.4112,100.3354,Cititel Penang
196,Kahului,US,29.01,scattered clouds,20.8947,-156.47,Maui Seaside Hotel
203,Kirakira,SB,27.27,overcast clouds,-10.4544,161.9205,SanBiz Lodge
210,Tizimin,MX,29.28,broken clouds,21.15,-88.15,Hotel Don Arun
214,San Cristobal,VE,25.1,scattered clouds,7.7669,-72.225,Posada Villaven C.A.
220,Chabahar,IR,29.44,clear sky,25.2919,60.643,هتل گدروشیا
230,Buala,SB,28.34,broken clouds,-8.145,159.5921,Maringe Lagoon Lodge
231,Suicheng,CN,25.93,broken clouds,33.8963,117.9331,Junyue Hotel
234,Kloulklubed,PW,27.28,overcast clouds,7.0419,134.2556,Storyboard Beach Resort
237,Pasni,PK,28.28,clear sky,25.2631,63.471000000000004,Kashmiri Hotal
238,Rock Sound,BS,26.04,scattered clouds,24.9,-76.2,Rock Sound Club
241,Isangel,VU,25.06,broken clouds,-19.55,169.2667,Tanna Lodge
242,Axim,GH,26.11,moderate rain,4.8699,-2.2405,AXIM BEACH RESORT AND SPA
248,Port-Gentil,GA,26.98,overcast clouds,-0.7193,8.7815,Fengshui Residence
251,Butaritari,KI,28.43,broken clouds,3.0707,172.7902,Isles Sunset Lodge
253,Alofi,NU,28.94,light rain,-19.0595,-169.9187,Taloa Heights
254,Coari,BR,25.47,broken clouds,-4.085,-63.1414,HOTEL ALEX FLAT
255,Jaque,PA,26.76,light rain,7.5175,-78.1703,Imbu Bua Lodge
261,Vanimo,PG,26.63,overcast clouds,-2.6741,141.3028,Vahmoneh Lodge Vanimo
262,Hobyo,SO,25.76,broken clouds,5.3505,48.5268,Halane Hotel and Restaurent
268,Ormara,PK,28.53,clear sky,25.2088,64.6357,Crystal Beach and Camping Resort Ormara
274,Tevaitoa,PF,26.37,broken clouds,-16.7833,-151.5,Hôtel Raiatea Lodge
285,Aloleng,PH,28.55,scattered clouds,16.1307,119.7824,Agno Umbrella Rocks
286,Areia Branca,BR,27.01,few clouds,-4.9561,-37.1369,Areia Branca Apart Hotel
291,Faanui,PF,26.69,overcast clouds,-16.4833,-151.75,Bora-Bora Pearl Beach Resort & Spa
295,Hambantota,LK,26.64,overcast clouds,6.1241,81.1185,Bungalow 63
298,Alice,US,29.85,clear sky,27.7523,-98.0697,"Holiday Inn Express & Suites Alice, an IHG Hotel"
301,Liku,ID,25.58,overcast clouds,-0.7275,119.8922,Kost Raisa & homestay
304,Saint-Georges,GD,27.82,few clouds,12.0564,-61.7485,Radisson Grenada Beach Resort
308,Elko,US,26.01,clear sky,41.0002,-115.5012,
309,Hit,IQ,29.06,broken clouds,33.6416,42.8251,صالون زيرو
311,San Patricio,US,29.99,scattered clouds,28.017,-97.5169,"Motel 6 Sinton, TX"
323,Lorengau,PG,27.67,overcast clouds,-2.0226,147.2712,Lorengau Harbourside Hotel
326,El Progreso,HN,29.71,broken clouds,15.4,-87.8,Hotel La Arboleda
327,Ahuimanu,US,29.88,broken clouds,21.4447,-157.8378,Paradise Bay Resort
333,Jalu,LY,28.6,clear sky,29.0331,21.5482,صاحبة الفخامة
338,Santander De Quilichao,CO,28.34,overcast clouds,3.0095,-76.4849,Hotel Los Samanes
340,Mushabani,IN,28.21,broken clouds,22.5167,86.45,"ZEE NEWS REPOTER,HOME"
341,Stephenville,US,25.19,broken clouds,32.2207,-98.2023,La Quinta Inn & Suites by Wyndham Stephenville
352,Semporna,MY,25.11,overcast clouds,4.4818,118.6112,"Han Palace Hotel, Semporna, Sabah."
356,Tra Vinh,VN,25.85,clear sky,9.9347,106.3453,Hồng Ân
359,Manadhoo,MV,28.65,broken clouds,5.7667,73.3833,Vevu Guesthouse
364,Kutum,SD,29.35,overcast clouds,14.2,24.6667,Dibbo areaمنطقة دبو
366,Makakilo City,US,29.23,scattered clouds,21.3469,-158.0858,Marriott's Ko Olina Beach Club
370,Kokoda,PG,26.22,overcast clouds,-8.8785,147.7407,Daito Guest House
372,Cayenne,GF,26.72,clear sky,4.9333,-52.3333,Hôtel Le Dronmi
374,Gorontalo,ID,25.33,moderate rain,0.5412,123.0595,Maqna Hotel by Prasanthi
375,Sola,VU,25.37,overcast clouds,-13.8833,167.55,Leumerus Bungalows
377,Thinadhoo,MV,28.35,few clouds,0.5333,72.9333,
384,Bandarbeyla,SO,26.02,overcast clouds,9.4942,50.8122,JABIR HOTEL
393,Padilla,CO,28.76,broken clouds,3.2204,-76.3139,La Granadina
396,Bac Lieu,VN,27.39,clear sky,9.285,105.7244,Khách sạn Sài Gòn Bạc Liêu
401,Cabedelo,BR,25.37,broken clouds,-6.9811,-34.8339,Hotel Pigalle
407,Bhigvan,IN,27.23,overcast clouds,18.3167,74.7667,Hotel Sagar
409,Latung,PH,28.77,light rain,5.5,120.8833,
414,Winnemucca,US,28.03,clear sky,40.973,-117.7357,Winners Inn Casino
415,Carutapera,BR,25.03,few clouds,-1.195,-46.02,Lidera
416,Sao Jose De Ribamar,BR,28.21,scattered clouds,-2.5619,-44.0542,Mediterrânea Hotel e Restaurante
422,Chodavaram,IN,29.91,scattered clouds,17.8333,82.95,Ganesh Defence Academy chodavadaram hostel
424,Kotma,IN,27.26,scattered clouds,23.2,81.9667,Abhishek dwivedi
431,Lamu,KE,25.12,scattered clouds,-2.2717,40.902,Lamu House
445,Kudahuvadhoo,MV,28.65,scattered clouds,2.6708,72.8944,Niyama Private Islands Maldives
446,Nalut,LY,26.58,scattered clouds,30.3333,10.85,
450,Boffa,GN,25.67,overcast clouds,10.1667,-14.0333,Hôtel Niara Belly
457,Tual,ID,27.51,overcast clouds,-5.6667,132.75,Grand Vilia Hotel
463,Trincomalee,LK,27.39,overcast clouds,8.5711,81.2335,Welcombe Hotel
467,Mangrol,IN,28.06,broken clouds,21.1167,70.1167,Hotel The Royal Honours
469,Kulhudhuffushi,MV,28.37,broken clouds,6.6221,73.07,Haajy Guest House 1
470,Cocobeach,GA,27.96,light rain,1.0002,9.5823,Hotel Esperance
477,Bonthe,SL,26.06,light rain,7.5264,-12.505,Bonthe Holiday Village
486,Itarema,BR,25.88,clear sky,-2.9248,-39.9167,"Sea Lounge! Bar, Club & Restaurant"
487,Gariaband,IN,28.63,scattered clouds,20.635,82.0614,हंसराज ट्रैक्टर
489,Lafia,NG,27.8,scattered clouds,8.4833,8.5167,Low Cost Housing Estate
490,Guliston,UZ,26.14,clear sky,40.4897,68.7842,Sadafhotel
493,Barceloneta,PR,28.9,few clouds,18.4505,-66.5385,Manati World Point Inn
497,Panama City,PA,28.29,scattered clouds,8.9936,-79.5197,Hotel Riande Granada Urban
500,Bathsheba,BB,27.34,scattered clouds,13.2167,-59.5167,Atlantis Hotel
504,Ixtapa,MX,28.46,few clouds,20.7,-105.2,Hotel Plaza Providencia
508,Dhamtari,IN,29.43,scattered clouds,20.7072,81.5497,shimon inn
510,Parrita,CR,29.87,light rain,9.5201,-84.3225,Beso del Viento
512,Porto Novo,BJ,27.9,broken clouds,6.4965,2.6036,Tour Eiffel Hotel Benin
528,Tema,GH,29.23,few clouds,5.667000000000001,-0.0166,Beulah Royale
532,Gallup,US,28.42,clear sky,35.5281,-108.7426,El Capitan Motel
536,Samarai,PG,26.84,overcast clouds,-10.6167,150.6667,Nuli Sapi
537,Dong Hoi,VN,28.95,overcast clouds,17.4833,106.6,Nam Long Hotel
538,Kuala Terengganu,MY,25.97,few clouds,5.3302,103.1408,Hotel Grand Continental Kuala Terengganu (4 Star)
541,Houma,US,28.89,scattered clouds,29.5958,-90.7195,Courtyard by Marriott Houma
544,Vung Tau,VN,27.58,scattered clouds,10.345999999999998,107.0843,Green hotel
545,Sakakah,SA,29.76,broken clouds,29.9697,40.2064,Fakhamat Al Orjoana Apartment
556,Raiganj,IN,27.07,scattered clouds,25.6167,88.1167,Raiganj Tourist Lodge
557,Lae,PG,25.37,overcast clouds,-6.7221,146.9847,Phils Hotel
567,Pangai,TO,28.06,scattered clouds,-19.8,-174.35,Ha'apai Beach Resort
570,Netrakona,BD,25.08,broken clouds,24.8833,90.7167,kurpar gas office
578,Dickinson,US,29.0,broken clouds,29.4608,-95.0513,Hampton Inn & Suites Houston/League City
579,Puerto Escondido,MX,29.67,overcast clouds,15.85,-97.0667,Aldea del Bazar Hotel and Spa
588,Salinopolis,BR,26.24,scattered clouds,-0.6136,-47.3561,Salinas Park Resort Maçarico AP101
594,Honiara,SB,28.81,overcast clouds,-9.4333,159.95,Heritage Park Hotel
597,The Valley,AI,27.92,few clouds,18.217,-63.0578,CeBlue Villas & Beach Resort
606,Gizo,SB,28.07,overcast clouds,-8.103,156.8419,Imagination Island
607,Conceicao Do Araguaia,BR,29.07,clear sky,-8.2578,-49.2647,Tarumã Tropical Hotel
608,Auki,SB,28.14,broken clouds,-8.7676,160.7034,Auki Motel
609,Vaitape,PF,26.67,overcast clouds,-16.5167,-151.75,Conrad Bora Bora Nui
616,Kampot,KH,27.03,few clouds,10.6167,104.1833,Two Moons Hotel
627,Santa Catarina De Tepehuanes,MX,29.75,overcast clouds,25.35,-105.7333,hotel plaza
640,Ban Nahin,LA,26.59,overcast clouds,18.2418,104.2122,
645,Jibuti,DJ,28.68,few clouds,11.5,42.5,Orchid Main Camp Goubet
655,Bhalki,IN,27.08,broken clouds,18.0333,77.2167,Sagar Home
660,Dhone,IN,26.58,broken clouds,15.4167,77.8833,Pennera Rakesh
662,Itaituba,BR,26.65,scattered clouds,-4.2761,-55.9836,Hotel Campos
663,Sorong,ID,26.05,overcast clouds,-0.8833,131.25,waigo splash hotel
664,Kuala Selangor,MY,28.11,scattered clouds,3.35,101.25,Apps Hotel
668,Manavalakurichi,IN,27.05,broken clouds,8.1333,77.3,Udaya Boys Hostel
674,Riberalta,BO,25.11,light rain,-10.9833,-66.1,Hotel Colonial
678,Dingle,PH,27.23,broken clouds,10.9995,122.6711,SEGAYA PROPERTY
679,Mozarlandia,BR,26.19,broken clouds,-14.7447,-50.5706,Hotel Santa Mônica
681,Kavaratti,IN,28.09,overcast clouds,10.5669,72.642,Hotels in Lakshadweep Islands
685,Mundo Nuevo,MX,29.76,broken clouds,18.7,-95.5,
688,Mandera,KE,26.04,broken clouds,3.9366,41.867,Kornesh Hotel and Lodging
690,Pandan,PH,28.18,overcast clouds,14.0453,124.1694,Bonifacio Lodge
692,Cabadiangan,PH,27.39,broken clouds,9.7531,122.4739,Kipot
700,Namuac,PH,28.1,scattered clouds,18.6109,121.1657,Mlin Hotel
